[{"istat":"8020","comune":"Chiusavecchia","regione":"Liguria","provincia":"IM","indirizzo":"Piazza Caduti di Guerra","geometry":{"type":"Point","coordinates":[7.98336917,43.9677616375]}},{"istat":"21052","comune":"Monguelfo-Tesido","regione":"Trentino-Alto Adige","provincia":"BZ","indirizzo":"Via Pusteria","geometry":{"type":"Point","coordinates":[12.1047121208931,46.7569830057905]}},{"istat":"23032","comune":"Erbè","regione":"Veneto","provincia":"VR","indirizzo":"Via Vittorio Emanuele","geometry":{"type":"Point","coordinates":[10.9679145333761,45.2415205763005]}},{"istat":"1099","comune":"Druento","regione":"Piemonte","provincia":"TO","indirizzo":"Via Roma","geometry":{"type":"Point","coordinates":[7.57652,45.13422]}},{"istat":"61084","comune":"Santa Maria La Fossa","regione":"Campania","provincia":"CE","indirizzo":"Piazza Europa","geometry":{"type":"Point","coordinates":[14.1306841911789,41.0930587567311]}},{"istat":"30077","comune":"Porpetto","regione":"Friuli-Venezia Giulia","provincia":"UD","indirizzo":"Via Udine","geometry":{"type":"Point","coordinates":[13.2136712,45.8551013]}},{"istat":"78036","comune":"Cerchiara di Calabria","regione":"Calabria","provincia":"CS","indirizzo":"Via Antonio Caputi","geometry":{"type":"Point","coordinates":[16.381705,39.85877]}},{"istat":"1272","comune":"Torino","regione":"Piemonte","provincia":"TO","indirizzo":"Piazza Palazzo di Città","geometry":{"coordinates":[7.6816115,45.0730055],"type":"Point"}},{"istat":"63019","comune":"Casamicciola Terme","regione":"Campania","provincia":"NA","indirizzo":"Via Principessa Margherita","geometry":{"type":"Point","coordinates":[13.9060226677333,40.7470093094343]}},{"istat":"40033","comune":"Premilcuore","regione":"Emilia-Romagna","provincia":"FC","indirizzo":"Viale Guglielmo Marconi","geometry":{"type":"Point","coordinates":[11.7772521141214,43.9764812645107]}}]